City,Lat,Lng,Max Temp,Humidity,Cloudiness,Wind Speed,Country,Date,Hemisphere
Esperance,-33.87,121.9,53.6,100,40,8.05,AU,1601419994,Southern Hemisphere
Ushuaia,-54.8,-68.3,35.6,80,75,26.4,AR,1601420042,Southern Hemisphere
East London,-33.02,27.91,59.29,67,97,1.81,ZA,1601419984,Southern Hemisphere
Hithadhoo,-0.6,73.08,82.99,74,80,8.84,MV,1601420043,Southern Hemisphere
Khatanga,71.97,102.5,31.1,99,100,10.13,RU,1601420043,Northern Hemisphere
Albany,42.6,-73.97,63.0,77,74,3.47,US,1601419914,Northern Hemisphere
Busselton,-33.65,115.33,55.99,90,81,8.3,AU,1601420044,Southern Hemisphere
Flinders,-34.58,150.86,64.0,73,100,3.0,AU,1601420044,Southern Hemisphere
Kuytun,54.34,101.5,35.91,87,100,12.95,RU,1601420045,Northern Hemisphere
Makiwalo,12.51,124.71,80.56,82,100,5.84,PH,1601420045,Northern Hemisphere
Provideniya,64.38,-173.3,42.8,70,90,4.47,RU,1601420045,Northern Hemisphere
Dingle,11.0,122.67,77.86,85,100,1.39,PH,1601420046,Northern Hemisphere
Bengkulu,-3.8,102.27,74.95,86,92,7.09,ID,1601419750,Southern Hemisphere
Mossamedes,-15.2,12.15,63.25,81,62,7.0,AO,1601420046,Southern Hemisphere
Asău,46.43,26.4,53.01,85,100,8.99,RO,1601419982,Northern Hemisphere
Port Alfred,-33.59,26.89,56.64,70,64,5.21,ZA,1601420047,Southern Hemisphere
Chui,-33.7,-53.46,52.77,76,22,8.57,UY,1601419865,Southern Hemisphere
Pevek,69.7,170.31,38.17,77,100,19.55,RU,1601420047,Northern Hemisphere
Grand-Lahou,5.14,-5.02,76.19,92,88,7.52,CI,1601420048,Northern Hemisphere
Columbus,39.96,-83.0,61.0,67,75,8.05,US,1601419825,Northern Hemisphere
Hobart,-42.88,147.33,53.6,76,75,8.05,AU,1601419750,Southern Hemisphere
Lawrenceburg,38.04,-84.9,55.99,81,90,5.82,US,1601420048,Northern Hemisphere
Al Bardīyah,31.76,25.09,74.46,75,2,9.44,LY,1601420049,Northern Hemisphere
Singaraja,-8.11,115.09,79.41,69,82,4.18,ID,1601420049,Southern Hemisphere
Kapaa,22.08,-159.32,86.0,62,1,6.93,US,1601419830,Northern Hemisphere
Hilo,19.73,-155.09,84.2,70,1,13.87,US,1601419987,Northern Hemisphere
Jalu,29.03,21.55,83.3,36,0,10.94,LY,1601420050,Northern Hemisphere
Fort Nelson,58.81,-122.7,59.0,30,5,10.29,CA,1601420050,Northern Hemisphere
Balkanabat,39.51,54.37,55.76,36,0,4.18,TM,1601420050,Northern Hemisphere
Rockland,41.17,-74.05,70.0,96,79,9.31,US,1601419813,Northern Hemisphere
Vaini,-21.2,-175.2,78.8,88,75,8.05,TO,1601420051,Southern Hemisphere
Tongliao,43.61,122.27,46.87,60,0,3.76,CN,1601420038,Northern Hemisphere
Sinnamary,5.38,-52.95,80.1,82,51,7.43,GF,1601420051,Northern Hemisphere
Boa Vista,2.82,-60.67,89.6,46,20,5.82,BR,1601420051,Northern Hemisphere
Urusha,54.05,122.9,37.2,83,1,1.59,RU,1601420052,Northern Hemisphere
Avarua,-21.21,-159.78,78.8,78,24,24.16,CK,1601420052,Southern Hemisphere
Atuona,-9.8,-139.03,78.58,71,13,17.0,PF,1601419981,Southern Hemisphere
Nome,64.5,-165.41,43.0,60,75,3.58,US,1601420053,Northern Hemisphere
Kismayo,-0.36,42.55,77.05,80,45,14.09,SO,1601420053,Southern Hemisphere
Barrow,71.29,-156.79,33.8,80,90,8.05,US,1601419880,Northern Hemisphere
Nautla,20.22,-96.78,71.38,62,100,19.55,MX,1601420054,Northern Hemisphere
Hong Kong,22.29,114.16,81.0,89,20,10.58,HK,1601419819,Northern Hemisphere
Rikitea,-23.12,-134.97,70.48,79,28,20.13,PF,1601419976,Southern Hemisphere
Plainview,40.78,-73.47,72.0,88,90,11.41,US,1601419761,Northern Hemisphere
Erzincan Province,39.75,39.5,57.2,67,13,2.24,TR,1601420054,Northern Hemisphere
Lebu,-37.62,-73.65,49.73,84,78,20.74,CL,1601420055,Southern Hemisphere
Dwārka,22.24,68.97,80.69,74,0,13.24,IN,1601420055,Northern Hemisphere
Punta Arenas,-53.15,-70.92,33.8,79,75,32.21,CL,1601420055,Southern Hemisphere
Cape Town,-33.93,18.42,55.99,76,4,12.75,ZA,1601420056,Southern Hemisphere
Jamestown,42.1,-79.24,57.99,76,90,5.82,US,1601420056,Northern Hemisphere
Qaanaaq,77.48,-69.36,14.56,80,0,5.93,GL,1601420056,Northern Hemisphere
Bethel,41.37,-73.41,69.8,94,75,5.82,US,1601419846,Northern Hemisphere
Clarence Town,-32.58,151.78,66.0,63,100,8.05,AU,1601420057,Southern Hemisphere
Chipinge,-20.19,32.62,60.67,99,83,3.27,ZW,1601420057,Southern Hemisphere
Aklavik,68.22,-135.01,39.2,86,90,5.82,CA,1601420057,Northern Hemisphere
Moscow,55.75,37.62,57.0,61,94,6.71,RU,1601419515,Northern Hemisphere
Hermanus,-34.42,19.23,50.0,89,7,6.29,ZA,1601419988,Southern Hemisphere
Katsuura,35.13,140.3,66.2,68,20,11.41,JP,1601420058,Northern Hemisphere
Severo-Kuril'sk,50.68,156.12,53.67,77,85,9.78,RU,1601420058,Northern Hemisphere
Poum,-20.23,164.02,70.52,65,2,10.51,NC,1601420059,Southern Hemisphere
Forssa,60.81,23.62,53.01,93,100,3.94,FI,1601420059,Northern Hemisphere
Bredasdorp,-34.53,20.04,50.0,81,1,2.24,ZA,1601420059,Southern Hemisphere
Half Moon Bay,37.46,-122.43,79.0,87,90,5.82,US,1601420060,Northern Hemisphere
San Patricio,19.22,-104.7,89.6,66,75,5.82,MX,1601420016,Northern Hemisphere
Mazatlán,23.22,-106.42,91.4,70,40,8.05,MX,1601420060,Northern Hemisphere
Rørvik,64.86,11.24,55.4,79,100,8.41,NO,1601420060,Northern Hemisphere
Suicheng,33.9,117.93,61.12,86,0,8.99,CN,1601420061,Northern Hemisphere
Jacareacanga,-6.22,-57.75,81.63,59,87,0.49,BR,1601420061,Southern Hemisphere
Nikolskoye,59.7,30.79,52.0,87,40,2.24,RU,1601420061,Northern Hemisphere
Ponta do Sol,32.67,-17.1,69.8,73,75,9.17,PT,1601420062,Northern Hemisphere
Russell,32.35,-85.2,63.0,88,40,5.82,US,1601420062,Northern Hemisphere
Quatre Cocos,-20.21,57.76,71.6,88,40,11.41,MU,1601420040,Southern Hemisphere
Yellowknife,62.46,-114.35,46.4,70,90,14.99,CA,1601420062,Northern Hemisphere
Swan River,52.11,-101.27,57.99,51,92,11.43,CA,1601420062,Northern Hemisphere
Saldanha,-33.01,17.94,50.0,81,0,5.82,ZA,1601420063,Southern Hemisphere
Boromo,11.75,-2.93,79.38,73,0,7.52,BF,1601420063,Northern Hemisphere
Carnarvon,-24.87,113.63,60.8,77,0,16.11,AU,1601420063,Southern Hemisphere
Dongying,37.46,118.49,61.11,49,3,7.16,CN,1601420064,Northern Hemisphere
Los Llanos de Aridane,28.66,-17.92,73.4,73,40,11.41,ES,1601420064,Northern Hemisphere
Departamento de Maldonado,-34.67,-54.92,64.99,55,0,10.29,UY,1601420064,Southern Hemisphere
Longyearbyen,78.22,15.64,46.4,75,75,18.34,SJ,1601419997,Northern Hemisphere
Ahipara,-35.17,173.17,57.31,56,68,9.55,NZ,1601420065,Southern Hemisphere
Puerto Ayora,-0.74,-90.35,66.99,93,93,8.01,EC,1601419992,Southern Hemisphere
Usinsk,65.99,57.53,43.81,93,99,9.89,RU,1601420065,Northern Hemisphere
Fortuna,40.6,-124.16,69.8,60,1,12.75,US,1601420066,Northern Hemisphere
Te Anau,-45.42,167.72,40.93,83,46,2.46,NZ,1601420066,Southern Hemisphere
São João da Barra,-21.64,-41.05,73.94,88,88,8.99,BR,1601420066,Southern Hemisphere
Guangming,45.33,122.78,48.69,64,0,2.53,CN,1601420067,Northern Hemisphere
Alice Springs,-23.7,133.88,66.2,52,0,9.17,AU,1601419978,Southern Hemisphere
Murdochville,48.96,-65.5,62.42,90,11,12.53,CA,1601419886,Northern Hemisphere
Port Hedland,-20.32,118.57,68.0,42,21,4.7,AU,1601420067,Southern Hemisphere
Waingapu,-9.66,120.26,80.33,70,99,6.53,ID,1601419896,Southern Hemisphere
Vágur,61.47,-6.81,51.04,83,63,27.96,FO,1601420068,Northern Hemisphere
Severo-Yeniseyskiy,60.37,93.04,25.3,97,72,4.52,RU,1601420068,Northern Hemisphere
Bambous Virieux,-20.34,57.76,71.6,88,40,11.41,MU,1601420069,Southern Hemisphere
Saint-Philippe,-21.36,55.77,69.8,73,20,6.93,RE,1601420069,Southern Hemisphere
Leningradskiy,69.38,178.42,37.29,77,87,8.08,RU,1601420005,Northern Hemisphere
São Filipe,14.9,-24.5,79.68,76,14,11.03,CV,1601420070,Northern Hemisphere
New Norfolk,-42.78,147.06,52.0,73,100,3.47,AU,1601420070,Southern Hemisphere
Caluire-et-Cuire,45.79,4.84,51.8,87,95,2.06,FR,1601420070,Northern Hemisphere
Tūkrah,32.53,20.58,73.33,73,0,11.48,LY,1601420070,Northern Hemisphere
Coyhaique,-45.58,-72.07,44.6,45,20,6.93,CL,1601420047,Southern Hemisphere
Husavik,66.04,-17.34,33.8,86,40,3.36,IS,1601420071,Northern Hemisphere
Chara,56.91,118.26,37.96,79,100,0.72,RU,1601420071,Northern Hemisphere
Butaritari,3.07,172.79,82.35,75,30,14.12,KI,1601420072,Northern Hemisphere
Ribeira Grande,38.52,-28.7,66.88,68,1,11.95,PT,1601419996,Northern Hemisphere
Tiznit Province,29.58,-9.5,68.92,70,0,1.74,MA,1601420072,Northern Hemisphere
Chokurdakh,70.63,147.92,39.0,89,65,6.82,RU,1601420073,Northern Hemisphere
Hongjiang,27.11,110.0,65.23,92,100,2.84,CN,1601420073,Northern Hemisphere
General Roca,-39.03,-67.58,69.8,18,27,14.99,AR,1601419807,Southern Hemisphere
Castro,-24.79,-50.01,66.22,88,67,4.61,BR,1601420073,Southern Hemisphere
Kushima,31.46,131.23,68.0,94,75,5.82,JP,1601420074,Northern Hemisphere
Saint George,37.1,-113.58,89.6,6,1,3.36,US,1601420060,Northern Hemisphere
Ilulissat,69.22,-51.1,28.4,63,57,6.93,GL,1601420074,Northern Hemisphere
Kapustin Yar,48.58,45.74,52.41,43,23,9.37,RU,1601420074,Northern Hemisphere
Mirny,62.54,113.96,23.0,92,20,6.71,RU,1601420075,Northern Hemisphere
Bluff,-46.6,168.33,45.0,92,99,8.01,NZ,1601420075,Southern Hemisphere
Semey,50.41,80.23,28.4,92,38,11.18,KZ,1601420075,Northern Hemisphere
General Pico,-35.66,-63.76,66.52,49,0,6.8,AR,1601420076,Southern Hemisphere
Hambantota,6.12,81.12,77.0,100,75,6.93,LK,1601420076,Northern Hemisphere
Tulagi,-9.1,160.15,80.6,83,75,5.82,SB,1601420076,Southern Hemisphere
Tasiilaq,65.61,-37.64,33.8,74,100,12.75,GL,1601420077,Northern Hemisphere
Nizhniy Kuranakh,58.84,125.49,41.77,86,100,4.12,RU,1601420077,Northern Hemisphere
Acatlán,20.15,-98.45,50.65,72,100,6.24,MX,1601420077,Northern Hemisphere
Tiksi,71.69,128.87,33.96,96,100,11.39,RU,1601419987,Northern Hemisphere
Ayan,56.45,138.17,47.3,68,48,10.58,RU,1601420078,Northern Hemisphere
Talnakh,69.49,88.4,32.0,95,75,8.95,RU,1601420078,Northern Hemisphere
Tuatapere,-46.13,167.68,45.0,92,87,8.01,NZ,1601419807,Southern Hemisphere
Yerbogachën,61.28,108.01,26.29,93,88,3.38,RU,1601420079,Northern Hemisphere
Rio Grande,-32.03,-52.1,62.01,84,81,1.99,BR,1601420054,Southern Hemisphere
Lorengau,-2.02,147.27,84.02,73,59,9.46,PG,1601420079,Southern Hemisphere
Solnechnyy,50.72,136.63,45.45,79,64,3.76,RU,1601420080,Northern Hemisphere
Seymchan,62.88,152.43,43.12,76,100,8.19,RU,1601420080,Northern Hemisphere
Vaitape,-16.52,-151.75,79.56,77,3,22.88,PF,1601420080,Southern Hemisphere
Kudahuvadhoo,2.67,72.89,82.49,74,100,8.05,MV,1601419892,Northern Hemisphere
Mataura,-46.19,168.86,45.0,92,100,8.01,NZ,1601419983,Southern Hemisphere
Saint Paul Harbor,57.79,-152.41,51.8,76,90,31.09,US,1601420081,Northern Hemisphere
Belaya Gora,68.53,146.42,43.77,81,68,4.74,RU,1601420081,Northern Hemisphere
Honiara,-9.43,159.95,80.6,83,75,5.82,SB,1601420082,Southern Hemisphere
Torbay,47.67,-52.73,66.99,93,90,20.8,CA,1601419793,Northern Hemisphere
Soyo,-6.13,12.37,74.32,81,91,7.31,AO,1601420082,Southern Hemisphere
Kavaratti,10.57,72.64,80.42,81,100,11.99,IN,1601420083,Northern Hemisphere
Boyolangu,-8.12,111.89,75.24,87,48,3.24,ID,1601420083,Southern Hemisphere
Inhambane,-23.86,35.38,73.53,85,67,3.4,MZ,1601420084,Southern Hemisphere
Mattawa,46.74,-119.9,82.0,24,1,2.93,US,1601420084,Northern Hemisphere
Thompson,55.74,-97.86,55.4,62,75,9.17,CA,1601420084,Northern Hemisphere
Clyde River,70.47,-68.59,26.6,86,75,12.75,CA,1601420004,Northern Hemisphere
Walvis Bay,-22.96,14.51,53.01,87,0,8.05,NA,1601420055,Southern Hemisphere
Prado,-17.34,-39.22,75.18,83,0,10.54,BR,1601420085,Southern Hemisphere
Sioux Lookout,50.1,-91.92,51.8,81,75,4.7,CA,1601420085,Northern Hemisphere
Sidhaulī,27.28,80.83,77.0,88,0,2.19,IN,1601420085,Northern Hemisphere
Laguna,38.42,-121.42,99.0,21,1,3.36,US,1601420042,Northern Hemisphere
San Cristobal,7.77,-72.22,87.8,43,40,18.34,VE,1601420086,Northern Hemisphere
Jérémie,18.65,-74.12,82.98,73,23,4.45,HT,1601420086,Northern Hemisphere
Lagoa,39.05,-27.98,66.69,68,73,10.49,PT,1601420022,Northern Hemisphere
Tolaga Bay,-38.37,178.3,54.84,43,4,7.49,NZ,1601419807,Southern Hemisphere
Vao,-22.67,167.48,67.35,74,0,22.39,NC,1601420087,Southern Hemisphere
Cabedelo,-6.98,-34.83,73.4,88,29,5.82,BR,1601420087,Southern Hemisphere
Ternate,0.8,127.4,80.13,79,96,4.59,ID,1601420059,Northern Hemisphere
Sitka,57.05,-135.33,53.6,71,90,5.82,US,1601420087,Northern Hemisphere
Norman Wells,65.28,-126.83,46.4,65,20,12.75,CA,1601420088,Northern Hemisphere
Cap Malheureux,-19.98,57.61,71.01,83,94,4.0,MU,1601420088,Southern Hemisphere
Saskylakh,71.92,114.08,25.23,97,12,5.57,RU,1601420013,Northern Hemisphere
San Jerónimo,-11.95,-75.28,54.16,62,56,4.23,PE,1601420089,Southern Hemisphere
Koumac,-20.57,164.28,73.22,59,0,13.65,NC,1601420089,Southern Hemisphere
Mar del Plata,-38.0,-57.56,68.0,49,39,9.17,AR,1601420014,Southern Hemisphere
Eslöv,55.84,13.3,53.01,94,45,5.26,SE,1601420089,Northern Hemisphere
Mahébourg,-20.41,57.7,71.6,88,40,11.41,MU,1601420090,Southern Hemisphere
Henties Bay,-22.12,14.28,53.01,89,0,5.01,NA,1601420027,Southern Hemisphere
Esmeraldas,-19.76,-44.31,87.8,33,20,8.05,BR,1601420090,Southern Hemisphere
Imeni Poliny Osipenko,52.42,136.49,46.27,77,95,5.01,RU,1601420091,Northern Hemisphere
Isangel,-19.55,169.27,73.54,79,65,19.22,VU,1601420091,Southern Hemisphere
Timmins,48.47,-81.33,55.4,82,75,6.93,CA,1601419904,Northern Hemisphere
Limenaria,40.63,24.58,64.99,72,20,4.7,GR,1601420091,Northern Hemisphere
Faanui,-16.48,-151.75,78.71,79,3,22.93,PF,1601420092,Southern Hemisphere
Bandarbeyla,9.49,50.81,77.85,79,62,20.94,SO,1601419998,Northern Hemisphere
Teahupoo,-17.83,-149.27,86.0,62,40,13.87,PF,1601420092,Southern Hemisphere
Puerto Escondido,15.85,-97.07,86.0,70,90,4.36,MX,1601420093,Northern Hemisphere
Port Elizabeth,-33.92,25.57,50.0,93,36,5.82,ZA,1601419854,Southern Hemisphere
Cabo San Lucas,22.89,-109.91,91.4,58,5,14.99,MX,1601420093,Northern Hemisphere
Galesong,-5.32,119.37,75.2,94,20,2.24,ID,1601420093,Southern Hemisphere
Río Gallegos,-51.62,-69.22,37.4,55,40,27.51,AR,1601420094,Southern Hemisphere
Pochutla,15.74,-96.47,84.99,75,93,4.27,MX,1601420094,Northern Hemisphere
Camabatela,-8.19,15.38,63.03,93,100,3.47,AO,1601420094,Southern Hemisphere
Coahuayana Viejo,18.73,-103.68,78.8,83,75,9.17,MX,1601420095,Northern Hemisphere
Nānākuli,21.39,-158.15,91.0,58,1,12.75,US,1601420095,Northern Hemisphere
Eyl,7.98,49.82,77.02,82,52,14.97,SO,1601420096,Northern Hemisphere
Pangai,-19.8,-174.35,82.4,74,40,13.87,TO,1601420096,Southern Hemisphere
Adrar,20.5,-10.07,93.25,17,0,8.32,MR,1601420096,Northern Hemisphere
Christchurch,-43.53,172.63,52.0,37,0,10.29,NZ,1601419945,Southern Hemisphere
Örnsköldsvik,63.29,18.72,48.2,100,90,2.24,SE,1601420097,Northern Hemisphere
Ruidoso,33.33,-105.67,68.0,20,1,6.93,US,1601420097,Northern Hemisphere
Weligama,5.97,80.42,77.49,85,100,7.67,LK,1601420098,Northern Hemisphere
Nanortalik,60.14,-45.24,36.18,77,0,22.1,GL,1601420098,Northern Hemisphere
Alofi,-19.06,-169.92,80.6,83,75,14.99,NU,1601420098,Southern Hemisphere
Rafaela,-31.25,-61.49,75.0,31,0,5.01,AR,1601420099,Southern Hemisphere
São Félix do Xingu,-6.64,-51.99,83.25,54,53,1.9,BR,1601420099,Southern Hemisphere
Kenai,60.55,-151.26,53.01,62,1,9.17,US,1601420026,Northern Hemisphere
Yertsevo,60.8,40.09,46.26,92,95,5.41,RU,1601420099,Northern Hemisphere
Cadiz,36.5,-5.75,68.0,67,48,6.55,ES,1601420100,Northern Hemisphere
Songling,31.19,120.72,70.0,96,12,6.35,CN,1601420100,Northern Hemisphere
Tabriz,38.08,46.29,55.4,47,0,9.17,IR,1601420100,Northern Hemisphere
Umm Kaddadah,13.6,26.69,88.02,47,79,13.67,SD,1601420101,Northern Hemisphere
Tuktoyaktuk,69.45,-133.04,37.4,93,90,3.36,CA,1601420101,Northern Hemisphere
Praia da Vitória,38.73,-27.07,66.2,68,75,9.33,PT,1601420102,Northern Hemisphere
Decatur,39.84,-88.95,59.0,58,90,6.93,US,1601419871,Northern Hemisphere
Colesberg,-30.72,25.1,45.05,51,0,8.43,ZA,1601420102,Southern Hemisphere
San Vicente,-26.62,-54.13,73.44,66,42,3.36,AR,1601420103,Southern Hemisphere
Katherine,-14.47,132.27,84.2,62,50,6.93,AU,1601420103,Southern Hemisphere
Calabozo,8.92,-67.43,77.86,92,83,4.25,VE,1601420104,Northern Hemisphere
North Bend,43.41,-124.22,80.01,47,75,6.93,US,1601420104,Northern Hemisphere
Pathein,16.78,94.73,75.9,94,58,3.76,MM,1601419814,Northern Hemisphere
Jiaojiang,28.68,121.44,70.0,99,64,4.74,CN,1601420105,Northern Hemisphere
Luganville,-15.53,167.17,80.6,74,75,5.82,VU,1601420105,Southern Hemisphere
Bien Hoa,10.95,106.82,77.0,100,75,1.12,VN,1601420105,Northern Hemisphere
Souillac,-20.52,57.52,71.6,88,40,11.41,MU,1601420019,Southern Hemisphere
Nador,35.17,-2.93,71.6,83,20,2.24,MA,1601420106,Northern Hemisphere
Sławno,54.36,16.68,52.57,90,33,3.89,PL,1601420106,Northern Hemisphere
Lüderitz,-26.65,15.16,58.62,52,0,21.21,NA,1601420038,Southern Hemisphere
Nabire,-3.37,135.48,80.83,79,98,2.3,ID,1601420107,Southern Hemisphere
Kachīry,53.07,76.1,36.07,81,2,2.39,KZ,1601420107,Northern Hemisphere
Bud,39.45,-86.18,60.01,51,75,5.82,US,1601420107,Northern Hemisphere
Namatanai,-3.67,152.43,83.95,70,67,6.29,PG,1601420108,Southern Hemisphere
Codrington,-38.27,141.97,55.92,89,100,14.58,AU,1601419992,Southern Hemisphere
Dikson,73.51,80.55,35.55,81,100,14.61,RU,1601420108,Northern Hemisphere
Pastavy,55.12,26.83,49.35,96,13,8.14,BY,1601420108,Northern Hemisphere
George Town,5.41,100.34,80.6,94,20,1.12,MY,1601420109,Northern Hemisphere
Strzegom,50.96,16.35,55.99,91,96,8.66,PL,1601420109,Northern Hemisphere
Chapada dos Guimarães,-15.46,-55.75,100.4,17,77,5.82,BR,1601419811,Southern Hemisphere
Geraldton,-28.77,114.6,48.2,93,1,8.05,AU,1601420109,Southern Hemisphere
Rānāghāt,23.18,88.58,82.4,100,40,1.7,IN,1601420110,Northern Hemisphere
Havøysund,71.0,24.66,46.4,87,20,8.05,NO,1601420110,Northern Hemisphere
Airai,-8.93,125.41,68.2,52,100,4.0,TL,1601420110,Southern Hemisphere
Bubaque,11.28,-15.83,81.97,79,64,8.34,GW,1601420111,Northern Hemisphere
Deputatsky,69.3,139.9,34.75,89,95,2.19,RU,1601419872,Northern Hemisphere
Ca Mau,9.18,105.15,76.01,90,66,2.84,VN,1601420094,Northern Hemisphere
Salalah,17.02,54.09,77.0,83,13,4.7,OM,1601420112,Northern Hemisphere
Luanda,-8.84,13.23,73.4,83,40,5.82,AO,1601420112,Southern Hemisphere
Athabasca,54.72,-113.29,57.2,38,0,15.95,CA,1601420112,Northern Hemisphere
Orlik,52.52,99.83,32.05,94,100,0.89,RU,1601420113,Northern Hemisphere
Dunedin,-45.87,170.5,46.99,63,84,25.01,NZ,1601420113,Southern Hemisphere
Mount Gambier,-37.83,140.77,55.4,93,90,11.41,AU,1601420114,Southern Hemisphere
Amposta,40.71,0.58,63.0,89,0,1.68,ES,1601420114,Northern Hemisphere
Abonnema,4.71,6.79,75.2,94,75,2.57,NG,1601420114,Northern Hemisphere
Port-Gentil,-0.72,8.78,77.0,83,40,9.17,GA,1601419870,Southern Hemisphere
Navolato,24.77,-107.69,98.01,57,0,5.01,MX,1601420115,Northern Hemisphere
Changji,44.02,87.32,44.6,45,0,8.95,CN,1601420115,Northern Hemisphere
Boffa,10.17,-14.03,77.2,90,67,3.06,GN,1601420115,Northern Hemisphere
Berlevåg,70.86,29.09,50.14,82,6,11.72,NO,1601420116,Northern Hemisphere
Manaus,-3.1,-60.02,82.4,94,90,1.12,BR,1601420112,Southern Hemisphere
Port Keats,-14.25,129.55,84.96,64,3,7.43,AU,1601420116,Southern Hemisphere
Udachny,66.42,112.4,23.0,100,90,8.95,RU,1601420117,Northern Hemisphere
Egvekinot,66.32,-179.17,33.64,91,84,2.91,RU,1601420117,Northern Hemisphere
Ancud,-41.87,-73.82,37.99,100,90,10.29,CL,1601419990,Southern Hemisphere
Nauchnyy Gorodok,53.42,83.52,30.2,80,12,11.18,RU,1601420117,Northern Hemisphere
Warrnambool,-38.38,142.48,57.99,77,99,7.0,AU,1601420118,Southern Hemisphere
Beloha,-25.17,45.05,66.18,95,19,5.61,MG,1601420119,Southern Hemisphere
San Andrés,12.58,-81.7,84.2,74,75,2.24,CO,1601420119,Northern Hemisphere
Chibuto,-24.69,33.53,68.63,88,100,13.2,MZ,1601420119,Southern Hemisphere
Qarqīn,37.42,66.04,51.42,52,4,5.7,AF,1601420120,Northern Hemisphere
Am Timan,11.03,20.28,74.17,90,95,4.65,TD,1601420120,Northern Hemisphere
Azanka,58.04,64.79,40.21,94,69,5.17,RU,1601420121,Northern Hemisphere
Saint-Joseph,-21.37,55.62,69.8,73,20,6.93,RE,1601419824,Southern Hemisphere
Pacific Grove,36.62,-121.92,75.0,91,7,5.99,US,1601419958,Northern Hemisphere
Dillon,34.42,-79.37,75.2,100,90,3.36,US,1601419832,Northern Hemisphere
Ambon City,-3.7,128.18,75.2,94,20,4.7,ID,1601420122,Southern Hemisphere
Vangaindrano,-23.35,47.6,66.54,89,12,4.72,MG,1601420122,Southern Hemisphere
Kamaishi,39.27,141.88,57.2,93,75,4.7,JP,1601420122,Northern Hemisphere
Qian’an,44.99,124.06,48.16,69,0,3.2,CN,1601420123,Northern Hemisphere
Otane,-39.88,176.63,55.72,49,65,3.18,NZ,1601420123,Southern Hemisphere
Keflavik,64.0,-22.56,39.2,86,40,3.36,IS,1601420123,Northern Hemisphere
Ust-Nera,64.57,143.2,40.6,69,93,8.25,RU,1601420123,Northern Hemisphere
Sensuntepeque,13.87,-88.63,87.8,70,20,6.93,SV,1601420124,Northern Hemisphere
Luau,-10.71,22.22,67.3,82,100,3.38,AO,1601420124,Southern Hemisphere
Mwense,-10.38,28.7,69.26,73,14,3.69,ZM,1601420124,Southern Hemisphere
Okato,-39.2,173.88,55.99,49,83,8.99,NZ,1601420125,Southern Hemisphere
Kiryat Gat,31.61,34.76,77.0,83,0,1.57,IL,1601420125,Northern Hemisphere
Upernavik,72.79,-56.15,23.4,87,59,6.6,GL,1601420126,Northern Hemisphere
Okhotsk,59.38,143.3,46.62,73,100,3.65,RU,1601420044,Northern Hemisphere
Gouré,13.98,10.27,80.01,69,58,3.0,NE,1601420126,Northern Hemisphere
Nacala,-14.54,40.67,72.43,91,0,4.09,MZ,1601420126,Southern Hemisphere
Kavieng,-2.57,150.8,83.55,70,62,5.5,PG,1601420011,Southern Hemisphere
Kūdligi,14.9,76.38,69.84,93,100,7.81,IN,1601420127,Northern Hemisphere
Bartlesville,36.75,-95.98,77.0,23,1,9.17,US,1601420000,Northern Hemisphere
Fukuechō,32.69,128.84,71.26,78,11,15.39,JP,1601420128,Northern Hemisphere
Cidreira,-30.18,-50.21,63.12,83,56,19.15,BR,1601420128,Southern Hemisphere
Yeppoon,-23.13,150.73,71.6,56,20,10.29,AU,1601420128,Southern Hemisphere
Korla,41.76,86.15,55.99,75,0,1.99,CN,1601420129,Northern Hemisphere
Pozo Colorado,-23.49,-58.8,91.33,34,20,8.41,PY,1601420129,Southern Hemisphere
Tabaquite,10.38,-61.3,84.2,79,20,6.93,TT,1601420129,Northern Hemisphere
Port Moresby,-9.44,147.18,80.37,76,82,10.94,PG,1601420052,Southern Hemisphere
Porto Nacional,-10.71,-48.42,89.6,52,46,2.24,BR,1601420130,Southern Hemisphere
Arlit,18.74,7.39,94.64,10,0,5.86,NE,1601420130,Northern Hemisphere
Vila Velha,-20.33,-40.29,81.0,83,75,8.05,BR,1601419909,Southern Hemisphere
Sylling,59.9,10.28,52.0,97,21,1.01,NO,1601420130,Northern Hemisphere
Broken Hill,-31.95,141.43,57.2,76,1,13.87,AU,1601420123,Southern Hemisphere
Mandalgovi,45.76,106.27,43.07,74,100,13.96,MN,1601420131,Northern Hemisphere
Taoudenni,22.68,-3.98,96.46,10,0,9.33,ML,1601420131,Northern Hemisphere
Trelew,-43.25,-65.31,47.71,80,49,11.27,AR,1601420132,Southern Hemisphere
Mildura,-34.2,142.15,59.0,87,100,6.93,AU,1601420132,Southern Hemisphere
Sabzawār,36.21,57.68,45.61,47,0,5.44,IR,1601420133,Northern Hemisphere
Scottsbluff,41.87,-103.67,82.4,14,1,16.11,US,1601420133,Northern Hemisphere
Ulaangom,49.98,92.07,39.72,68,100,4.56,MN,1601420133,Northern Hemisphere
Faya,18.39,42.45,64.4,52,0,0.69,SA,1601420133,Northern Hemisphere
Échirolles,45.13,5.72,51.01,91,45,1.99,FR,1601420134,Northern Hemisphere
Kloulklubed,7.04,134.26,78.8,88,90,3.36,PW,1601420134,Northern Hemisphere
Vilhena,-12.74,-60.15,75.2,78,75,3.36,BR,1601420134,Southern Hemisphere
Toma,12.77,-2.88,82.33,60,52,7.58,BF,1601420135,Northern Hemisphere
Muroto-misakicho,33.28,134.15,66.2,93,75,3.36,JP,1601420135,Northern Hemisphere
Olafsvik,64.89,-23.71,40.32,85,87,10.18,IS,1601420135,Northern Hemisphere
Sakakah,29.97,40.21,82.4,18,0,6.93,SA,1601420031,Northern Hemisphere
Alakurtti,66.97,30.35,37.99,96,75,1.45,RU,1601420136,Northern Hemisphere
Luena,-11.78,19.92,64.15,88,91,6.93,AO,1601419877,Southern Hemisphere
Enshi,30.3,109.48,61.92,84,93,1.83,CN,1601420136,Northern Hemisphere
Valvedditturai,9.82,80.17,80.76,79,89,16.96,LK,1601420137,Northern Hemisphere
Emba,48.83,58.14,52.52,43,0,7.36,KZ,1601420137,Northern Hemisphere
Tessalit,20.2,1.01,89.31,12,77,6.22,ML,1601420137,Northern Hemisphere
Hasilpur,29.71,72.56,80.94,26,0,6.26,PK,1601420138,Northern Hemisphere
Kuminskiy,58.67,66.57,39.85,85,53,6.76,RU,1601420138,Northern Hemisphere
Bakchar,57.02,82.07,31.23,98,76,3.87,RU,1601420138,Northern Hemisphere
Yulara,-25.24,130.99,64.4,68,0,6.93,AU,1601420139,Southern Hemisphere
Corinth,37.94,22.96,70.0,48,1,5.01,GR,1601420139,Northern Hemisphere
Neuquén,-38.95,-68.06,69.8,18,57,14.99,AR,1601420139,Southern Hemisphere
Sur,22.57,59.53,81.82,49,0,10.18,OM,1601419906,Northern Hemisphere
Nakhon Thai,17.1,100.84,74.35,88,92,2.13,TH,1601420140,Northern Hemisphere
Nampula,-15.12,39.27,65.46,95,0,4.38,MZ,1601420140,Southern Hemisphere
Kruisfontein,-34.0,24.73,46.99,89,0,5.12,ZA,1601420140,Southern Hemisphere
Point Fortin,10.18,-61.68,84.0,85,100,13.47,TT,1601420141,Northern Hemisphere
Nouadhibou,20.93,-17.03,71.6,78,0,16.11,MR,1601420054,Northern Hemisphere
İzmit,40.77,29.92,60.8,100,75,2.24,TR,1601420141,Northern Hemisphere
Arraial do Cabo,-22.97,-42.03,75.2,88,40,8.05,BR,1601420009,Southern Hemisphere
Mulegé,26.88,-111.98,92.57,37,0,6.76,MX,1601420142,Northern Hemisphere
Zhob,31.34,69.45,66.67,27,0,2.19,PK,1601420142,Northern Hemisphere
Saddiqabad,28.31,70.13,81.82,38,0,7.07,PK,1601420142,Northern Hemisphere
Havelock,34.88,-76.9,75.99,94,75,10.29,US,1601420134,Northern Hemisphere
Bennington,42.88,-73.2,64.99,82,90,4.7,US,1601420143,Northern Hemisphere
Līsakovsk,52.54,62.49,47.53,93,24,5.44,KZ,1601420143,Northern Hemisphere
Kaitangata,-46.28,169.85,45.0,67,66,4.0,NZ,1601420143,Southern Hemisphere
Bontang,0.13,117.5,77.67,85,39,2.66,ID,1601420144,Northern Hemisphere
Necochea,-38.55,-58.74,62.01,68,0,5.99,AR,1601419954,Southern Hemisphere
Shimoda,34.67,138.95,64.0,69,34,1.99,JP,1601420144,Northern Hemisphere
Khovd,48.01,91.64,35.67,73,51,3.04,MN,1601420145,Northern Hemisphere
Cherskiy,68.75,161.3,42.67,64,100,14.23,RU,1601420145,Northern Hemisphere
Porangatu,-13.44,-49.15,87.44,18,23,1.28,BR,1601420145,Southern Hemisphere
Conceição do Araguaia,-8.26,-49.26,86.76,45,39,5.37,BR,1601420146,Southern Hemisphere
Saint-Pierre,-21.34,55.48,69.8,73,20,6.93,RE,1601420146,Southern Hemisphere
Miles City,46.41,-105.84,82.4,18,1,18.34,US,1601420100,Northern Hemisphere
Fort-Shevchenko,44.51,50.26,61.36,42,0,16.6,KZ,1601420147,Northern Hemisphere
Lakes Entrance,-37.88,147.98,53.01,89,100,2.57,AU,1601420147,Southern Hemisphere
High Level,58.52,-117.14,60.8,38,40,8.05,CA,1601420147,Northern Hemisphere
Jumla,29.27,82.18,53.24,58,0,4.7,NP,1601420148,Northern Hemisphere
Kafue,-15.77,28.18,71.6,53,70,4.7,ZM,1601420148,Southern Hemisphere
North Branch,45.51,-92.98,64.99,58,100,5.99,US,1601420148,Northern Hemisphere
Parintins,-2.63,-56.74,86.22,42,54,3.49,BR,1601420148,Southern Hemisphere
Saint-Augustin,51.23,-58.65,61.12,89,100,18.28,CA,1601420149,Northern Hemisphere
Donskoye,45.46,41.97,53.6,76,95,17.9,RU,1601420149,Northern Hemisphere
Nantucket,41.28,-70.1,68.0,94,40,5.82,US,1601420149,Northern Hemisphere
Karratha,-20.74,116.85,74.55,25,74,11.41,AU,1601420150,Southern Hemisphere
Kohlu,29.9,69.25,68.29,36,0,1.86,PK,1601420150,Northern Hemisphere
Aksu,41.12,80.26,57.27,35,6,5.77,CN,1601420150,Northern Hemisphere
Caravelas,-17.71,-39.25,74.91,83,0,8.55,BR,1601420151,Southern Hemisphere
Itoman,26.12,127.67,80.6,74,75,12.75,JP,1601420151,Northern Hemisphere
Bishoftu,8.75,38.98,58.1,83,81,3.33,ET,1601420151,Northern Hemisphere
Eureka,40.8,-124.16,69.8,87,90,3.36,US,1601420152,Northern Hemisphere
Denpasar,-8.65,115.22,80.6,100,40,9.17,ID,1601419866,Southern Hemisphere
Kurchum,48.57,83.65,40.51,73,81,10.18,KZ,1601420152,Northern Hemisphere
Terra Santa,-2.1,-56.49,85.78,43,33,2.91,BR,1601420153,Southern Hemisphere
Margate,51.38,1.39,55.0,78,34,13.31,GB,1601420153,Northern Hemisphere
Bouna,9.27,-3.0,72.46,91,100,3.6,CI,1601420153,Northern Hemisphere
Gizo Government Station,-8.1,156.84,82.96,74,49,9.26,SB,1601420154,Southern Hemisphere
Plastun,44.76,136.29,53.49,70,95,6.4,RU,1601420154,Northern Hemisphere
Chicama,-7.84,-79.15,65.01,73,28,8.01,PE,1601420155,Southern Hemisphere
Kahului,20.89,-156.47,87.8,55,20,14.99,US,1601419878,Northern Hemisphere
Phitsanulok,16.92,100.5,72.81,98,98,2.04,TH,1601420155,Northern Hemisphere
Yakeshi,49.28,120.73,36.59,81,29,3.44,CN,1601420111,Northern Hemisphere
Baijiantan,45.63,85.18,46.08,53,0,3.44,CN,1601420156,Northern Hemisphere
Dickinson,29.46,-95.05,80.6,22,1,12.75,US,1601420156,Northern Hemisphere
Saurimo,-9.66,20.39,67.87,88,91,5.08,AO,1601420052,Southern Hemisphere
Lethem,3.38,-59.8,83.98,53,80,6.4,GY,1601420157,Northern Hemisphere
Muli,2.92,73.57,82.35,76,100,8.14,MV,1601420157,Northern Hemisphere
Roald,62.58,6.13,53.6,93,100,3.36,NO,1601420157,Northern Hemisphere
Broome,42.25,-75.83,55.0,93,90,3.36,US,1601419975,Northern Hemisphere
Toledo,39.83,-4.0,66.99,29,30,1.59,ES,1601420158,Northern Hemisphere
Hasaki,35.73,140.83,64.4,77,20,12.75,JP,1601420158,Northern Hemisphere
Coari,-4.08,-63.14,83.55,62,60,2.42,BR,1601420158,Southern Hemisphere
Nelson Bay,-32.72,152.15,66.0,63,98,8.05,AU,1601420158,Southern Hemisphere
Puerto Armuelles,8.28,-82.87,68.0,98,90,9.01,PA,1601420159,Northern Hemisphere
Cayenne,4.93,-52.33,82.4,78,69,3.36,GF,1601420159,Northern Hemisphere
Linxia Chengguanzhen,35.6,103.21,53.96,86,99,1.7,CN,1601420097,Northern Hemisphere
Saint Anthony,45.02,-93.22,64.99,48,1,4.7,US,1601420159,Northern Hemisphere
Zeya,53.75,127.27,40.51,73,0,2.57,RU,1601420160,Northern Hemisphere
Kurya,51.6,82.29,34.2,90,96,8.88,RU,1601420160,Northern Hemisphere
Sturgeon Bay,44.83,-87.38,55.4,76,90,5.82,US,1601420160,Northern Hemisphere
Kuril'sk,45.23,147.88,57.87,77,100,7.45,RU,1601420161,Northern Hemisphere
Mt. Pleasant,32.79,-79.86,77.0,100,75,9.17,US,1601420161,Northern Hemisphere
Belyy Yar,53.6,91.39,35.6,80,100,8.95,RU,1601420161,Northern Hemisphere
Hofn,64.25,-15.21,47.97,93,100,15.59,IS,1601420023,Northern Hemisphere
Bilibino,68.05,166.44,39.04,69,100,2.28,RU,1601420162,Northern Hemisphere
Buala,-8.14,159.59,84.15,67,54,5.03,SB,1601420162,Southern Hemisphere
Dawei,14.08,98.2,77.68,90,95,5.03,MM,1601420163,Northern Hemisphere
Rosita,13.93,-84.4,83.48,70,25,3.0,NI,1601420163,Northern Hemisphere
Lompoc,34.64,-120.46,77.0,64,1,17.22,US,1601419991,Northern Hemisphere
Tombouctou,20.0,-3.0,95.14,12,0,3.18,ML,1601420164,Northern Hemisphere
Soe,-9.86,124.28,72.59,65,95,3.83,ID,1601420164,Southern Hemisphere
Narsaq,60.92,-46.05,33.8,50,0,4.7,GL,1601420164,Northern Hemisphere
Rodrigues Alves,-7.74,-72.65,73.44,96,97,3.13,BR,1601420165,Southern Hemisphere
Whyalla,-33.03,137.58,55.4,87,75,3.36,AU,1601420165,Southern Hemisphere
Skibbereen,51.55,-9.27,53.6,100,75,19.46,IE,1601420165,Northern Hemisphere
Nazarovo,56.01,90.39,27.25,97,26,2.91,RU,1601420166,Northern Hemisphere
Mayumba,-3.43,10.66,75.29,82,90,6.26,GA,1601420166,Southern Hemisphere
Mehrān,33.12,46.16,68.0,30,0,4.7,IR,1601420166,Northern Hemisphere
Katobu,-4.94,122.53,78.98,81,48,2.84,ID,1601420167,Southern Hemisphere
Shingū,33.73,135.98,69.8,73,40,6.93,JP,1601420167,Northern Hemisphere
Avera,33.19,-82.53,61.0,100,40,8.05,US,1601420167,Northern Hemisphere
Ivanjica,43.58,20.23,51.8,100,40,2.64,RS,1601420167,Northern Hemisphere
Takoradze,4.88,-1.76,75.96,92,85,9.48,GH,1601420168,Northern Hemisphere
Pemberton,50.32,-122.8,69.8,56,5,0.85,CA,1601420168,Northern Hemisphere
Gigmoto,13.78,124.39,81.77,75,100,2.51,PH,1601420168,Northern Hemisphere
Wukari,7.85,9.78,70.56,97,86,2.95,NG,1601420169,Northern Hemisphere
Guadalupe,25.68,-100.25,80.6,28,40,6.06,MX,1601420169,Northern Hemisphere
Mattru,7.62,-11.83,74.43,97,100,2.48,SL,1601420169,Northern Hemisphere
Tyrma,50.08,132.17,42.67,73,0,2.04,RU,1601420170,Northern Hemisphere
Victor Harbor,-35.57,138.62,55.0,89,70,14.03,AU,1601420170,Southern Hemisphere
Iqaluit,63.75,-68.51,26.6,68,20,8.05,CA,1601420170,Northern Hemisphere
Carballo,43.21,-8.69,55.0,100,0,4.7,ES,1601420171,Northern Hemisphere
Marrakesh,31.63,-8.01,73.4,60,32,2.24,MA,1601420171,Northern Hemisphere
Anadyr,64.75,177.48,44.6,75,20,4.47,RU,1601420171,Northern Hemisphere
Artigas,-30.4,-56.47,60.66,90,0,9.06,UY,1601420171,Southern Hemisphere
Manado,1.49,124.85,75.2,94,75,2.24,ID,1601420172,Northern Hemisphere
Oddur,4.12,43.89,72.82,75,83,13.96,SO,1601420172,Northern Hemisphere
Shiraz,29.6,52.54,62.6,48,0,1.83,IR,1601420173,Northern Hemisphere
Upington,-28.45,21.26,48.2,14,0,3.36,ZA,1601420173,Southern Hemisphere
Charters Towers,-20.1,146.27,72.39,57,9,15.88,AU,1601420173,Southern Hemisphere
Ust'-Ishim,57.69,71.17,37.45,80,49,5.26,RU,1601420174,Northern Hemisphere
Finote Selam,10.7,37.27,55.92,92,91,2.57,ET,1601420174,Northern Hemisphere
Maraã,-1.83,-65.37,72.18,95,96,1.86,BR,1601420174,Southern Hemisphere
Falāvarjān,32.56,51.51,57.2,22,40,5.12,IR,1601420175,Northern Hemisphere
Camacha,33.08,-16.33,69.8,68,40,9.17,PT,1601420175,Northern Hemisphere
Salym,60.06,71.48,41.04,89,100,9.62,RU,1601420175,Northern Hemisphere
Kochubey,44.39,46.58,62.29,51,97,23.0,RU,1601420176,Northern Hemisphere
Wajima,37.4,136.9,69.64,72,85,10.96,JP,1601420176,Northern Hemisphere
Socorro,31.65,-106.3,79.0,16,5,6.93,US,1601420176,Northern Hemisphere
Praxédis Guerrero,31.37,-106.02,79.0,16,5,6.93,MX,1601420176,Northern Hemisphere
Baishishan,43.58,127.57,46.54,76,0,1.68,CN,1601420177,Northern Hemisphere
Kyren,51.68,102.14,37.58,79,100,2.75,RU,1601420177,Northern Hemisphere
Touros,-5.2,-35.46,75.2,83,23,3.36,BR,1601420177,Southern Hemisphere
Shimanovsk,52.0,127.7,42.35,74,0,2.93,RU,1601420177,Northern Hemisphere
Wattegama,6.8,81.48,77.0,100,75,6.93,LK,1601420178,Northern Hemisphere
Hamilton,39.18,-84.53,62.01,67,75,5.82,US,1601420142,Northern Hemisphere
Macamic,48.75,-79.0,57.2,62,75,12.75,CA,1601420178,Northern Hemisphere
Lima,-12.04,-77.03,64.4,72,40,18.34,PE,1601420176,Southern Hemisphere
Ylöjärvi,61.56,23.6,55.0,100,90,4.7,FI,1601420179,Northern Hemisphere
Tsimmerbude,54.67,20.13,55.99,93,20,2.24,RU,1601420179,Northern Hemisphere
Rosarito,32.33,-117.03,89.6,38,5,9.17,MX,1601420179,Northern Hemisphere
La Ronge,55.1,-105.28,57.2,44,75,14.99,CA,1601420179,Northern Hemisphere
Coquimbo,-29.95,-71.34,57.2,62,1,12.75,CL,1601419995,Southern Hemisphere
Camopi,3.17,-52.32,80.89,63,54,5.68,GF,1601420180,Northern Hemisphere
Port Blair,11.67,92.75,81.03,81,93,16.91,IN,1601420180,Northern Hemisphere
Zhangye,38.93,100.45,52.93,46,95,20.65,CN,1601420181,Northern Hemisphere
Minas,-34.38,-55.24,64.99,55,5,10.29,UY,1601420181,Southern Hemisphere
Mil'kovo,54.72,158.62,43.25,90,97,0.92,RU,1601420181,Northern Hemisphere
Padang,-0.95,100.35,76.37,72,82,4.54,ID,1601420178,Southern Hemisphere
Ouésso,1.61,16.05,70.12,88,7,2.46,CG,1601420182,Northern Hemisphere
Paamiut,61.99,-49.67,34.56,76,0,13.29,GL,1601420182,Northern Hemisphere
Gusau,12.16,6.66,75.43,83,39,7.38,NG,1601420183,Northern Hemisphere
Lumberton,34.62,-79.01,77.0,94,90,8.05,US,1601420183,Northern Hemisphere
Pontianak,-0.03,109.33,74.93,91,100,3.02,ID,1601420183,Southern Hemisphere
‘Āhuimanu,21.44,-157.84,91.4,58,20,9.17,US,1601419968,Northern Hemisphere
Måløy,61.94,5.11,51.8,93,90,3.36,NO,1601420184,Northern Hemisphere
Amapá,1.0,-52.0,81.0,57,39,4.21,BR,1601420184,Northern Hemisphere
Russellville,35.28,-93.13,73.4,33,1,11.41,US,1601419931,Northern Hemisphere
Ugoofaaru,5.67,73.0,81.9,73,89,9.57,MV,1601420185,Northern Hemisphere
Champerico,14.3,-91.92,84.2,79,75,6.93,GT,1601420185,Northern Hemisphere
Palu,-0.89,119.87,77.11,77,89,2.33,ID,1601420185,Southern Hemisphere
Bonavista,48.65,-53.11,61.48,89,20,16.6,CA,1601420010,Northern Hemisphere
Kaeo,-35.1,173.78,61.0,67,68,10.0,NZ,1601420186,Southern Hemisphere
Farīdpur,23.6,89.83,82.4,78,40,4.45,BD,1601420186,Northern Hemisphere
Evensk,61.95,159.23,41.14,91,100,7.49,RU,1601420186,Northern Hemisphere
Richards Bay,-28.78,32.04,62.24,83,99,5.91,ZA,1601420187,Southern Hemisphere
Mujiayingzi,42.12,118.78,44.31,59,2,4.5,CN,1601420187,Northern Hemisphere
Gornopravdinsk,60.05,69.9,42.48,83,100,8.5,RU,1601420188,Northern Hemisphere
Fairbanks,64.84,-147.72,53.6,54,40,4.7,US,1601419980,Northern Hemisphere
Jaral del Progreso,20.37,-101.07,75.2,44,75,11.41,MX,1601420188,Northern Hemisphere
Gmina Końskie,51.19,20.41,55.0,1,100,8.77,PL,1601420188,Northern Hemisphere
Ossora,59.24,163.07,46.24,89,100,17.07,RU,1601420188,Northern Hemisphere
Pachino,36.72,15.09,64.0,83,9,8.19,IT,1601420189,Northern Hemisphere
Puerto Ayacucho,5.66,-67.62,80.6,78,40,2.37,VE,1601420189,Northern Hemisphere
Sørland,67.67,12.69,50.59,87,100,7.7,NO,1601420028,Northern Hemisphere
Phonhong,18.5,102.42,75.52,92,98,1.32,LA,1601420190,Northern Hemisphere
La Asuncion,11.03,-63.86,87.8,66,11,20.8,VE,1601420190,Northern Hemisphere
El Tigre,8.89,-64.25,79.95,75,69,11.01,VE,1601420190,Northern Hemisphere
Wawa,9.9,4.42,73.89,95,93,3.85,NG,1601420191,Northern Hemisphere
Ketchikan,55.34,-131.65,55.4,71,90,9.17,US,1601420188,Northern Hemisphere
Hilton Head,32.22,-80.75,64.99,93,99,10.29,US,1601420191,Northern Hemisphere
Makīnsk,52.63,70.42,36.79,79,74,4.05,KZ,1601420191,Northern Hemisphere
Aykhal,66.0,111.5,23.0,100,90,8.95,RU,1601420192,Northern Hemisphere
Tottori-shi,35.5,134.23,64.4,88,75,5.82,JP,1601420192,Northern Hemisphere
Manaure,11.78,-72.44,86.0,79,75,13.87,CO,1601420192,Northern Hemisphere
Burnie,-41.07,145.92,54.0,89,100,5.99,AU,1601420193,Southern Hemisphere
Maroua,10.59,14.32,75.7,86,73,2.73,CM,1601420193,Northern Hemisphere
Cockburn Town,21.46,-71.14,84.2,74,40,18.34,TC,1601420193,Northern Hemisphere
Çumra,37.57,32.77,55.4,82,0,7.38,TR,1601420194,Northern Hemisphere
St. George's,12.06,-61.75,84.2,79,40,11.41,GD,1601420194,Northern Hemisphere
Mingshui,36.72,117.5,63.0,72,11,2.62,CN,1601420194,Northern Hemisphere
Suntar,62.14,117.63,29.08,94,100,3.47,RU,1601420195,Northern Hemisphere
Puerto del Rosario,28.5,-13.86,73.4,73,24,11.41,ES,1601420195,Northern Hemisphere
Chuzhou,32.32,118.3,71.01,83,0,1.01,CN,1601420195,Northern Hemisphere
Bandraboua,-12.7,45.12,75.2,83,0,5.82,YT,1601420196,Southern Hemisphere
Baraboo,43.47,-89.74,57.99,76,90,8.05,US,1601420196,Northern Hemisphere
Huambo,-12.78,15.74,62.35,75,100,2.35,AO,1601420196,Southern Hemisphere
Arcos,-20.28,-45.54,82.54,25,14,5.91,BR,1601420196,Southern Hemisphere
Port Hardy,50.7,-127.42,60.8,87,5,2.21,CA,1601420079,Northern Hemisphere
Kirensk,57.79,108.11,33.33,94,100,9.62,RU,1601420197,Northern Hemisphere
Kalugumalai,9.15,77.72,80.65,63,100,10.8,IN,1601420197,Northern Hemisphere
Eunice,30.49,-92.42,75.2,35,1,10.29,US,1601420198,Northern Hemisphere
Rome,43.21,-75.46,55.4,93,90,2.82,US,1601419963,Northern Hemisphere
Jiwani,25.05,61.74,80.37,78,0,4.05,PK,1601420198,Northern Hemisphere
Porto Santo,33.07,-16.34,69.8,68,40,9.17,PT,1601420198,Northern Hemisphere
Samarai,-10.62,150.67,79.14,84,54,16.08,PG,1601420199,Southern Hemisphere
Barcelos,41.54,-8.62,62.01,93,0,3.78,PT,1601420199,Northern Hemisphere
Kautokeino,69.01,23.04,41.52,92,22,6.85,NO,1601420199,Northern Hemisphere
São José da Coroa Grande,-8.9,-35.15,74.95,78,3,8.99,BR,1601420200,Southern Hemisphere
Kiama,-34.68,150.87,64.0,58,100,14.0,AU,1601420200,Southern Hemisphere
Quatis,-22.41,-44.26,69.84,89,55,2.21,BR,1601420200,Southern Hemisphere
Guerrero Negro,27.98,-114.06,91.36,28,0,12.57,MX,1601420201,Northern Hemisphere
Hay River,60.82,-115.8,50.0,71,75,21.92,CA,1601420201,Northern Hemisphere
Bahía Blanca,-38.72,-62.27,64.8,28,0,8.19,AR,1601420201,Southern Hemisphere
Aswān,24.09,32.91,82.18,22,0,2.68,EG,1601420048,Northern Hemisphere
Vila Franca do Campo,37.72,-25.43,66.2,72,20,11.41,PT,1601420145,Northern Hemisphere
Distrikt Brokopondo,4.75,-55.17,83.25,55,64,11.27,SR,1601420202,Northern Hemisphere
Turukhansk,65.82,87.98,33.76,97,100,10.27,RU,1601420202,Northern Hemisphere
Sochi,43.6,39.73,69.01,77,65,11.18,RU,1601420202,Northern Hemisphere
Haines Junction,60.75,-137.51,46.98,54,87,2.24,CA,1601420203,Northern Hemisphere
Springfield,37.22,-93.3,69.01,40,8,7.0,US,1601420203,Northern Hemisphere
Sedro-Woolley,48.5,-122.24,75.0,60,1,11.41,US,1601420203,Northern Hemisphere
Øksfjord,70.24,22.35,46.4,87,55,11.41,NO,1601420203,Northern Hemisphere
Srednekolymsk,67.45,153.68,43.52,89,92,7.96,RU,1601420204,Northern Hemisphere
Kumul,42.8,93.45,47.32,48,0,18.14,CN,1601420204,Northern Hemisphere
Igarka,67.47,86.58,35.62,96,100,12.64,RU,1601420204,Northern Hemisphere
Salinópolis,-0.61,-47.36,80.02,80,7,13.2,BR,1601420205,Southern Hemisphere
Pacifica,37.61,-122.49,79.0,87,90,5.82,US,1601420014,Northern Hemisphere
Japura,-0.32,102.35,73.65,90,100,1.7,ID,1601420205,Southern Hemisphere
Kitimat,54.05,-128.65,57.0,91,92,5.3,CA,1601420206,Northern Hemisphere
Ust-Maya,60.42,134.53,36.93,86,88,3.29,RU,1601420206,Northern Hemisphere
North Platte,41.12,-100.77,84.2,18,1,14.99,US,1601420206,Northern Hemisphere
Klaksvík,62.23,-6.59,50.0,93,13,19.46,FO,1601420207,Northern Hemisphere
Licata,37.11,13.95,62.01,93,21,3.36,IT,1601420207,Northern Hemisphere
Ciudad del Carmen,18.63,-91.83,86.0,74,40,10.29,MX,1601420143,Northern Hemisphere
Sambava,-14.27,50.17,73.89,82,33,8.75,MG,1601420053,Southern Hemisphere
Beringovskiy,63.05,179.32,43.93,65,34,0.69,RU,1601420207,Northern Hemisphere
Yinchuan,38.47,106.27,59.72,65,74,2.21,CN,1601420208,Northern Hemisphere
Mestia,43.05,42.73,50.97,60,100,1.99,GE,1601420208,Northern Hemisphere
Iquitos,-3.75,-73.25,73.4,94,75,5.82,PE,1601420208,Southern Hemisphere
Rawson,-43.3,-65.1,47.41,84,67,11.16,AR,1601419991,Southern Hemisphere
Yicheng,31.37,119.87,63.0,99,9,1.99,CN,1601420209,Northern Hemisphere
Makakilo City,21.35,-158.09,91.4,58,1,12.75,US,1601420209,Northern Hemisphere
Karla,59.37,24.93,55.4,93,90,4.7,EE,1601420209,Northern Hemisphere
Guadalupe y Calvo,26.1,-106.97,70.27,36,0,5.66,MX,1601420210,Northern Hemisphere
Grand Gaube,-20.01,57.66,71.01,83,93,4.0,MU,1601420210,Southern Hemisphere
Meulaboh,4.14,96.13,76.69,88,100,4.85,ID,1601420210,Northern Hemisphere
Lingao,19.91,109.69,79.63,85,100,2.89,CN,1601420211,Northern Hemisphere
Aberfeldy,56.62,-3.86,43.0,90,69,4.5,GB,1601420211,Northern Hemisphere
Marystown,47.17,-55.15,66.0,100,71,3.0,CA,1601420211,Northern Hemisphere
Althofen,46.88,14.47,46.4,93,39,5.82,AT,1601420211,Northern Hemisphere
Konakovo,56.7,36.77,50.88,63,100,5.77,RU,1601420212,Northern Hemisphere
Lipetsk,52.6,39.57,48.2,45,99,8.95,RU,1601420212,Northern Hemisphere
Yuncheng,35.02,110.99,60.04,81,0,6.13,CN,1601420212,Northern Hemisphere
Prince Rupert,54.32,-130.32,59.0,82,90,4.7,CA,1601420212,Northern Hemisphere
Bayan,46.08,127.4,46.67,75,0,3.09,CN,1601420213,Northern Hemisphere
Ahtopol,42.1,27.95,63.0,82,40,16.11,BG,1601420213,Northern Hemisphere
Senneterre,48.38,-77.23,57.2,71,75,6.93,CA,1601420213,Northern Hemisphere
Porto Murtinho,-21.7,-57.88,89.98,37,72,5.35,BR,1601420214,Southern Hemisphere
Balkhash,46.84,74.98,45.88,57,0,23.24,KZ,1601420214,Northern Hemisphere
Khani,41.96,42.96,69.8,46,100,38.03,GE,1601420214,Northern Hemisphere
Matamoros,25.53,-103.25,78.8,27,5,8.99,MX,1601420214,Northern Hemisphere
Corpus Christi,27.8,-97.4,82.99,21,20,11.41,US,1601420157,Northern Hemisphere
Kargat,55.2,80.28,31.82,96,35,2.93,RU,1601420215,Northern Hemisphere
Nizhniy Tsasuchey,50.52,115.13,38.91,73,0,2.68,RU,1601420215,Northern Hemisphere
Djibo,14.1,-1.63,90.37,36,46,12.8,BF,1601420216,Northern Hemisphere
Amahai,-3.33,128.92,80.17,80,93,2.26,ID,1601420216,Southern Hemisphere
Altar,30.7,-111.82,102.0,20,0,1.01,MX,1601420216,Northern Hemisphere
Mina,26.0,-100.53,77.0,29,40,3.36,MX,1601420216,Northern Hemisphere
Ust'-Koksa,50.27,85.61,31.53,94,98,0.58,RU,1601420217,Northern Hemisphere
Moerai,-22.43,-151.33,72.14,73,40,18.45,PF,1601420217,Southern Hemisphere
College,64.86,-147.8,53.6,57,40,3.87,US,1601420217,Northern Hemisphere
Lavrentiya,65.58,-171.0,37.44,76,0,2.08,RU,1601420218,Northern Hemisphere
Marawi,8.0,124.29,73.99,87,57,5.99,PH,1601420218,Northern Hemisphere
Curup,-3.47,102.53,67.86,89,96,3.98,ID,1601420218,Southern Hemisphere
Rafai,4.95,23.92,68.38,96,86,0.98,CF,1601420219,Northern Hemisphere
Mackay,-21.15,149.2,75.2,53,0,14.99,AU,1601420219,Southern Hemisphere
Revelstoke,50.98,-118.2,66.2,63,1,4.7,CA,1601420219,Northern Hemisphere
Tamiahua,21.27,-97.45,72.7,71,99,9.31,MX,1601420220,Northern Hemisphere
Sept-Îles,50.2,-66.38,60.8,87,75,6.93,CA,1601420017,Northern Hemisphere
Mehamn,71.04,27.85,49.1,87,18,11.81,NO,1601420099,Northern Hemisphere
Lake Wales,27.9,-81.59,77.0,100,75,6.93,US,1601420220,Northern Hemisphere
Portland,45.52,-122.68,88.0,34,20,2.13,US,1601420220,Northern Hemisphere
Nemuro,43.32,145.57,58.48,75,100,9.48,JP,1601420221,Northern Hemisphere
Sapa,5.15,120.32,80.85,75,100,2.73,PH,1601420221,Northern Hemisphere
Mitsamiouli,-11.38,43.28,76.37,75,2,4.21,KM,1601420222,Southern Hemisphere
Hearst,49.68,-83.67,49.21,94,74,1.92,CA,1601420222,Northern Hemisphere
Lanquín,15.57,-89.97,77.0,86,61,1.59,GT,1601420223,Northern Hemisphere
La Macarena,2.18,-73.78,74.39,91,78,5.08,CO,1601420223,Northern Hemisphere
Constitución,-35.33,-72.42,51.4,82,96,14.12,CL,1601420223,Southern Hemisphere
Buckeye,33.37,-112.58,100.99,10,1,6.93,US,1601420224,Northern Hemisphere
Pangody,65.85,74.49,35.87,88,80,8.1,RU,1601420224,Northern Hemisphere
Milledgeville,33.08,-83.23,60.8,82,90,8.05,US,1601420224,Northern Hemisphere
Mayo,38.89,-76.51,75.0,94,90,10.29,US,1601420050,Northern Hemisphere
Māngrol,21.12,70.12,78.62,80,12,9.8,IN,1601420225,Northern Hemisphere
Dalton,34.77,-84.97,62.6,67,75,3.36,US,1601420178,Northern Hemisphere
Saryagash,41.45,69.17,53.6,76,40,9.17,KZ,1601420226,Northern Hemisphere
Northam,51.03,-4.22,51.01,91,65,5.99,GB,1601420226,Northern Hemisphere
Lata,40.16,-8.33,60.01,85,71,1.88,PT,1601420226,Northern Hemisphere
Goderich,43.75,-81.72,61.0,65,100,1.99,CA,1601420041,Northern Hemisphere
Taft,31.75,54.21,62.6,25,75,9.17,IR,1601420227,Northern Hemisphere
Maceió,-9.67,-35.74,73.4,88,20,5.82,BR,1601420157,Southern Hemisphere
Arrondissement d'Ajaccio,42.0,8.92,57.2,93,75,4.7,FR,1601420227,Northern Hemisphere
Santiago del Estero,-27.8,-64.26,79.39,32,0,7.31,AR,1601420148,Southern Hemisphere
Wanning,18.8,110.4,79.16,87,88,1.16,CN,1601420228,Northern Hemisphere
Prieska,-29.66,22.75,50.59,37,0,4.09,ZA,1601420228,Southern Hemisphere
Virginia Beach,36.85,-75.98,75.99,88,90,9.17,US,1601420165,Northern Hemisphere
Palotina,-24.28,-53.84,83.34,53,1,7.7,BR,1601420228,Southern Hemisphere
Mzimba,-11.9,33.6,63.77,71,18,7.29,MW,1601420229,Southern Hemisphere
Joensuu,62.6,29.76,48.2,100,90,2.24,FI,1601420229,Northern Hemisphere
Paraíso,9.84,-83.87,69.8,94,75,1.12,CR,1601420229,Northern Hemisphere
Black River,18.03,-77.85,87.8,74,40,17.22,JM,1601420230,Northern Hemisphere
Comodoro Rivadavia,-45.87,-67.5,42.8,87,75,4.72,AR,1601420080,Southern Hemisphere
Whittlesea,-32.18,26.82,42.85,81,43,2.71,ZA,1601420230,Southern Hemisphere
Semīrom,31.42,51.57,39.52,75,2,3.4,IR,1601420230,Northern Hemisphere
Niamey,13.51,2.11,87.8,62,77,6.93,NE,1601420052,Northern Hemisphere
Mnogovershinnyy,53.94,139.92,44.73,98,99,5.77,RU,1601420231,Northern Hemisphere
Tivaouane,14.95,-16.81,80.6,88,20,8.05,SN,1601420231,Northern Hemisphere
Popondetta,-8.75,148.25,86.02,62,27,1.66,PG,1601420232,Southern Hemisphere
Esim,4.87,-2.24,76.15,92,95,8.59,GH,1601420232,Northern Hemisphere
Palana,59.12,159.97,42.01,87,100,6.17,RU,1601420233,Northern Hemisphere
Tsabong,-26.02,22.4,53.28,28,0,7.34,BW,1601420233,Southern Hemisphere
Jiayuguan City,39.82,98.3,44.38,58,50,7.72,CN,1601420233,Northern Hemisphere
Miandrivazo,-19.52,45.47,76.66,55,2,3.24,MG,1601420234,Southern Hemisphere
Yangi Marg`ilon,40.43,71.72,57.2,50,78,1.59,UZ,1601420234,Northern Hemisphere
Leonidovo,49.28,142.87,55.0,64,0,1.7,RU,1601420234,Northern Hemisphere
Prince George,53.92,-122.75,59.0,58,1,3.36,CA,1601420235,Northern Hemisphere
Barra do Corda,-5.5,-45.25,85.93,45,62,6.33,BR,1601420235,Southern Hemisphere
Ormara,25.21,64.64,82.17,62,0,13.82,PK,1601420201,Northern Hemisphere
Itarema,-2.92,-39.92,78.58,76,8,17.54,BR,1601420235,Southern Hemisphere
Tommot,58.96,126.29,41.94,88,99,2.82,RU,1601420236,Northern Hemisphere
Paranavaí,-23.07,-52.47,87.8,43,50,5.82,BR,1601420236,Southern Hemisphere
Melbourne,28.08,-80.61,84.2,83,40,13.87,US,1601420207,Northern Hemisphere
Yurga,55.72,84.89,29.53,97,39,4.23,RU,1601420236,Northern Hemisphere
Njombe,-9.33,34.77,55.31,95,26,4.41,TZ,1601420237,Southern Hemisphere
Quirinópolis,-18.45,-50.45,89.28,17,0,4.83,BR,1601420237,Southern Hemisphere
Channagiri,14.03,75.93,67.96,94,99,8.08,IN,1601420237,Northern Hemisphere
Jaciara,-15.97,-54.97,88.5,21,63,3.58,BR,1601420238,Southern Hemisphere
Ereymentau,51.62,73.1,34.38,85,0,4.85,KZ,1601420238,Northern Hemisphere
Carnot,4.94,15.87,69.94,92,100,2.48,CF,1601420239,Northern Hemisphere
Chegutu,-18.13,30.14,69.13,64,72,7.47,ZW,1601420239,Southern Hemisphere
Zhalantun,48.0,122.72,42.35,71,1,4.76,CN,1601420239,Northern Hemisphere
Manjeshwar,12.72,74.89,78.8,83,75,2.93,IN,1601420240,Northern Hemisphere
Houma,29.6,-90.72,77.0,36,1,13.87,US,1601420115,Northern Hemisphere
Kiunga,-6.12,141.29,76.17,92,98,4.25,PG,1601420240,Southern Hemisphere
Shestakovo,56.49,103.96,34.52,91,100,8.39,RU,1601420241,Northern Hemisphere
Krasnyy Profintern,57.74,40.44,44.6,87,99,2.24,RU,1601420241,Northern Hemisphere
Mocuba,-16.84,36.99,73.67,76,4,4.83,MZ,1601420241,Southern Hemisphere
Bay Saint Louis,30.31,-89.33,75.2,38,1,13.87,US,1601420242,Northern Hemisphere
Gamba,-2.65,10.0,74.97,77,27,7.47,GA,1601420242,Southern Hemisphere
Raudeberg,61.99,5.14,51.01,96,100,3.09,NO,1601420242,Northern Hemisphere
Rzhishchëv,49.97,31.05,59.0,77,40,8.95,UA,1601420243,Northern Hemisphere
Inírida,3.87,-67.92,78.64,81,84,2.04,CO,1601420243,Northern Hemisphere
Channel-Port aux Basques,47.57,-59.14,60.12,93,55,14.94,CA,1601420243,Northern Hemisphere
Byron Bay,-28.65,153.62,63.0,82,99,2.19,AU,1601420244,Southern Hemisphere
Lensk,60.73,114.93,34.2,86,100,1.3,RU,1601420244,Northern Hemisphere
Rutana Province,-3.87,30.1,60.69,86,31,3.27,BI,1601420244,Southern Hemisphere
Ürümqi,43.8,87.6,44.6,45,0,8.95,CN,1601420245,Northern Hemisphere
Tynda,55.17,124.72,35.82,85,8,0.81,RU,1601420245,Northern Hemisphere
Cururupu,-1.83,-44.87,76.19,89,82,3.06,BR,1601420245,Southern Hemisphere
Kuopio,62.89,27.68,51.8,93,90,4.7,FI,1601420245,Northern Hemisphere
Villa Rica,33.73,-84.92,61.0,80,100,4.25,US,1601420025,Northern Hemisphere
Wundanyi,-3.4,38.36,58.33,99,74,4.76,KE,1601420247,Southern Hemisphere
Wajir,1.75,40.06,74.52,73,43,16.87,KE,1601420247,Northern Hemisphere
Agirish,61.92,63.02,45.82,93,32,7.94,RU,1601420248,Northern Hemisphere
Antalaha,-14.9,50.28,71.85,86,64,5.95,MG,1601420248,Southern Hemisphere
Manali,13.17,80.27,75.2,94,90,8.05,IN,1601420248,Northern Hemisphere
Yen Bai,21.7,104.87,76.6,92,94,0.58,VN,1601420249,Northern Hemisphere
Talā,30.68,30.94,71.02,89,0,2.35,EG,1601420249,Northern Hemisphere
Orocué,4.79,-71.34,79.97,77,88,2.91,CO,1601420249,Northern Hemisphere
Shatrovo,56.52,64.63,40.86,74,0,4.32,RU,1601420250,Northern Hemisphere
Vestmanna,62.16,-7.17,50.0,93,39,19.46,FO,1601420250,Northern Hemisphere
Springdale,36.19,-94.13,71.6,32,1,12.75,US,1601419968,Northern Hemisphere
Vera Cruz,-12.63,-41.03,74.77,45,0,5.35,BR,1601420251,Southern Hemisphere
Petropavlovsk-Kamchatskiy,53.05,158.65,44.6,100,90,11.18,RU,1601420251,Northern Hemisphere
Nísia Floresta,-6.09,-35.21,77.0,78,20,8.05,BR,1601420251,Southern Hemisphere
Sarakhs,36.54,61.16,48.2,49,0,2.24,IR,1601420252,Northern Hemisphere
Mahajanga,-15.72,46.32,73.4,88,20,3.36,MG,1601420252,Southern Hemisphere
São João do Paraíso,-15.31,-42.01,75.79,40,0,9.42,BR,1601420252,Southern Hemisphere
Grindavik,63.84,-22.43,39.2,86,40,3.36,IS,1601420252,Northern Hemisphere
Ngong,-1.36,36.66,64.4,88,75,8.05,KE,1601420253,Southern Hemisphere
Marzuq,14.4,46.47,75.45,54,21,5.59,YE,1601420253,Northern Hemisphere
Carutapera,-1.2,-46.02,79.11,80,10,7.16,BR,1601420253,Southern Hemisphere
Pangnirtung,66.15,-65.71,28.4,79,20,5.82,CA,1601420008,Northern Hemisphere
